{
    "line_name": "1",
    "color": "#FFD800",
    "z_index": 3,
    "stops": [
        {
            "name": "Kelenföld vasútállomás M",
            "lat": 47.464469,
            "lng": 19.023384
        },
        {
            "name": "Bártfai utca",
            "lat": 47.46411,
            "lng": 19.029632
        },
        {
            "name": "Bikás park M",
            "lat": 47.463625,
            "lng": 19.033306
        },
        {
            "name": "Etele út / Fehérvári út",
            "lat": 47.462277,
            "lng": 19.043347
        },
        {
            "name": "Hengermalom út / Szerémi út",
            "lat": 47.462583,
            "lng": 19.048507
        },
        {
            "name": "Hauszmann Alajos utca / Szerémi út",
            "lat": 47.467035,
            "lng": 19.049754
        },
        {
            "name": "Budafoki út / Dombóvári út",
            "lat": 47.469644,
            "lng": 19.05437
        },
        {
            "name": "Infopark",
            "lat": 47.469086,
            "lng": 19.060499
        },
        {
            "name": "Közvágóhíd H",
            "lat": 47.46876,
            "lng": 19.073512
        },
        {
            "name": "Mester utca / Könyves Kálmán körút",
            "lat": 47.469746,
            "lng": 19.084483
        },
        {
            "name": "Ferencváros vá. - Málenkij Robot Eh.",
            "lat": 47.470293,
            "lng": 19.089285
        },
        {
            "name": "Albert Flórián út",
            "lat": 47.472746,
            "lng": 19.096119
        },
        {
            "name": "Népliget M",
            "lat": 47.476325,
            "lng": 19.099294
        },
        {
            "name": "Vajda Péter utca",
            "lat": 47.481801,
            "lng": 19.103611
        },
        {
            "name": "Kőbányai út / Könyves Kálmán körút",
            "lat": 47.48626,
            "lng": 19.10753
        },
        {
            "name": "Hidegkuti Nándor Stadion",
            "lat": 47.491216,
            "lng": 19.108982
        },
        {
            "name": "Hős utca",
            "lat": 47.496271,
            "lng": 19.109134
        },
        {
            "name": "Puskás Ferenc Stadion M",
            "lat": 47.500966,
            "lng": 19.108091
        },
        {
            "name": "Egressy út / Hungária körút",
            "lat": 47.507184,
            "lng": 19.104022
        },
        {
            "name": "Zugló vasútállomás",
            "lat": 47.511333,
            "lng": 19.099141
        },
        {
            "name": "Ajtósi Dürer sor",
            "lat": 47.513835,
            "lng": 19.095758
        },
        {
            "name": "Erzsébet királyné útja, aluljáró",
            "lat": 47.516814,
            "lng": 19.091406
        },
        {
            "name": "Kacsóh Pongrác út",
            "lat": 47.519099,
            "lng": 19.088115
        },
        {
            "name": "Vágány utca / Róbert Károly körút",
            "lat": 47.523653,
            "lng": 19.080987
        },
        {
            "name": "Lehel utca / Róbert Károly körút",
            "lat": 47.526227,
            "lng": 19.076952
        },
        {
            "name": "Honvédkórház",
            "lat": 47.530438,
            "lng": 19.070181
        },
        {
            "name": "Göncz Árpád városközpont M",
            "lat": 47.532255,
            "lng": 19.067313
        },
        {
            "name": "Népfürdő utca / Árpád híd",
            "lat": 47.536322,
            "lng": 19.058867
        },
        {
            "name": "Szentlélek tér H",
            "lat": 47.539596,
            "lng": 19.045199
        },
        {
            "name": "Flórián tér",
            "lat": 47.541539,
            "lng": 19.039979
        },
        {
            "name": "Óbudai rendelőintézet",
            "lat": 47.545936,
            "lng": 19.033455
        },
        {
            "name": "Bécsi út / Vörösvári út",
            "lat": 47.548796,
            "lng": 19.029376
        },
        {
            "name": "Óbudai rendelőintézet",
            "lat": 47.544884,
            "lng": 19.03477
        },
        {
            "name": "Flórián tér",
            "lat": 47.541116,
            "lng": 19.040536
        },
        {
            "name": "Szentlélek tér H",
            "lat": 47.539362,
            "lng": 19.045916
        },
        {
            "name": "Népfürdő utca / Árpád híd",
            "lat": 47.536115,
            "lng": 19.059531
        },
        {
            "name": "Göncz Árpád városközpont M",
            "lat": 47.533002,
            "lng": 19.066118
        },
        {
            "name": "Honvédkórház",
            "lat": 47.530069,
            "lng": 19.070699
        },
        {
            "name": "Lehel utca / Róbert Károly körút",
            "lat": 47.525795,
            "lng": 19.077536
        },
        {
            "name": "Vágány utca / Róbert Károly körút",
            "lat": 47.523257,
            "lng": 19.081478
        },
        {
            "name": "Kacsóh Pongrác út",
            "lat": 47.518704,
            "lng": 19.088553
        },
        {
            "name": "Erzsébet királyné útja, aluljáró",
            "lat": 47.516427,
            "lng": 19.09191
        },
        {
            "name": "Ajtósi Dürer sor",
            "lat": 47.513448,
            "lng": 19.096262
        },
        {
            "name": "Zugló vasútállomás",
            "lat": 47.510928,
            "lng": 19.099579
        },
        {
            "name": "Egressy út / Hungária körút",
            "lat": 47.506779,
            "lng": 19.10446
        },
        {
            "name": "Puskás Ferenc Stadion M",
            "lat": 47.500418,
            "lng": 19.108157
        },
        {
            "name": "Hős utca",
            "lat": 47.495722,
            "lng": 19.10908
        },
        {
            "name": "Hidegkuti Nándor Stadion",
            "lat": 47.490703,
            "lng": 19.108915
        },
        {
            "name": "Kőbányai út / Könyves Kálmán körút",
            "lat": 47.485766,
            "lng": 19.107079
        },
        {
            "name": "Vajda Péter utca",
            "lat": 47.481378,
            "lng": 19.103199
        },
        {
            "name": "Népliget M",
            "lat": 47.475893,
            "lng": 19.098895
        },
        {
            "name": "Albert Flórián út",
            "lat": 47.472423,
            "lng": 19.095522
        },
        {
            "name": "Ferencváros vá. - Málenkij Robot Eh.",
            "lat": 47.470204,
            "lng": 19.088529
        },
        {
            "name": "Mester utca / Könyves Kálmán körút",
            "lat": 47.469594,
            "lng": 19.08374
        },
        {
            "name": "Közvágóhíd H",
            "lat": 47.46876,
            "lng": 19.072769
        },
        {
            "name": "Infopark",
            "lat": 47.469194,
            "lng": 19.059729
        },
        {
            "name": "Budafoki út / Dombóvári út",
            "lat": 47.469797,
            "lng": 19.053667
        },
        {
            "name": "Hauszmann Alajos utca / Szerémi út",
            "lat": 47.466559,
            "lng": 19.049568
        },
        {
            "name": "Hengermalom út / Szerémi út",
            "lat": 47.462097,
            "lng": 19.048308
        },
        {
            "name": "Etele út / Fehérvári út",
            "lat": 47.462376,
            "lng": 19.042618
        },
        {
            "name": "Bikás park M",
            "lat": 47.463769,
            "lng": 19.032417
        },
        {
            "name": "Bártfai utca",
            "lat": 47.464236,
            "lng": 19.028902
        },
        {
            "name": "Kelenföld vasútállomás M",
            "lat": 47.46401,
            "lng": 19.023106
        }
    ],
    "segment": "Bécsi út / Vörösvári út to Kelenföld vasútállomás",
    "paths": [
        [
            [
                47.464466,
                19.02341
            ],
            [
                47.464797,
                19.023599
            ],
            [
                47.46484,
                19.023984
            ],
            [
                47.461699,
                19.047907
            ],
            [
                47.462023,
                19.048365
            ],
            [
                47.469779,
                19.050604
            ],
            [
                47.470183,
                19.051146
            ],
            [
                47.469405,
                19.056157
            ],
            [
                47.468914,
                19.062636
            ],
            [
                47.468684,
                19.071064
            ],
            [
                47.468742,
                19.074592
            ],
            [
                47.468556,
                19.077721
            ],
            [
                47.468686,
                19.080364
            ],
            [
                47.469057,
                19.082222
            ],
            [
                47.469746,
                19.084483
            ],
            [
                47.470392,
                19.089694
            ],
            [
                47.472283,
                19.095299
            ],
            [
                47.472818,
                19.096234
            ],
            [
                47.475704,
                19.098836
            ],
            [
                47.480772,
                19.102726
            ],
            [
                47.486264,
                19.107546
            ],
            [
                47.488758,
                19.108807
            ],
            [
                47.490195,
                19.10897
            ],
            [
                47.496466,
                19.109136
            ],
            [
                47.502837,
                19.107565
            ],
            [
                47.506652,
                19.104689
            ],
            [
                47.512764,
                19.097388
            ],
            [
                47.519105,
                19.088159
            ],
            [
                47.532255,
                19.067313
            ],
            [
                47.535057,
                19.063187
            ],
            [
                47.53569,
                19.061579
            ],
            [
                47.536265,
                19.05934
            ],
            [
                47.540336,
                19.042064
            ],
            [
                47.542989,
                19.037605
            ],
            [
                47.548796,
                19.029376
            ]
        ],
        [
            [
                47.548782,
                19.029352
            ],
            [
                47.542962,
                19.037565
            ],
            [
                47.540909,
                19.040834
            ],
            [
                47.54026,
                19.042137
            ],
            [
                47.535636,
                19.061544
            ],
            [
                47.535061,
                19.063034
            ],
            [
                47.532203,
                19.067169
            ],
            [
                47.528919,
                19.072584
            ],
            [
                47.520012,
                19.086567
            ],
            [
                47.512303,
                19.097902
            ],
            [
                47.506779,
                19.10446
            ],
            [
                47.502585,
                19.107644
            ],
            [
                47.496625,
                19.109036
            ],
            [
                47.489004,
                19.108802
            ],
            [
                47.487018,
                19.107902
            ],
            [
                47.485766,
                19.107079
            ],
            [
                47.481969,
                19.103637
            ],
            [
                47.475893,
                19.098895
            ],
            [
                47.475372,
                19.098301
            ],
            [
                47.473096,
                19.096423
            ],
            [
                47.472423,
                19.095522
            ],
            [
                47.470511,
                19.089937
            ],
            [
                47.470204,
                19.088529
            ],
            [
                47.469851,
                19.08473
            ],
            [
                47.468996,
                19.081841
            ],
            [
                47.468716,
                19.080352
            ],
            [
                47.468587,
                19.077684
            ],
            [
                47.468805,
                19.074002
            ],
            [
                47.468726,
                19.071208
            ],
            [
                47.468945,
                19.062644
            ],
            [
                47.469437,
                19.05614
            ],
            [
                47.470229,
                19.051093
            ],
            [
                47.4698,
                19.050561
            ],
            [
                47.462097,
                19.048308
            ],
            [
                47.461739,
                19.047786
            ],
            [
                47.464881,
                19.023888
            ],
            [
                47.464736,
                19.023368
            ],
            [
                47.46401,
                19.023106
            ]
        ]
    ]
}