{
    "line_name": "49",
    "color": "#FFD800",
    "z_index": 3,
    "stops": [
        {
            "name": "Deák Ferenc tér M",
            "lat": 47.497413,
            "lng": 19.055158
        },
        {
            "name": "Astoria M",
            "lat": 47.494561,
            "lng": 19.059696
        },
        {
            "name": "Kálvin tér M",
            "lat": 47.489219,
            "lng": 19.061248
        },
        {
            "name": "Fővám tér M",
            "lat": 47.486916,
            "lng": 19.05724
        },
        {
            "name": "Szent Gellért tér - Műegyetem M",
            "lat": 47.483337,
            "lng": 19.053086
        },
        {
            "name": "Gárdonyi tér",
            "lat": 47.479991,
            "lng": 19.051428
        },
        {
            "name": "Móricz Zsigmond körtér M",
            "lat": 47.477374,
            "lng": 19.046161
        },
        {
            "name": "Kosztolányi Dezső tér",
            "lat": 47.47499,
            "lng": 19.039382
        },
        {
            "name": "Karolina út",
            "lat": 47.472696,
            "lng": 19.033201
        },
        {
            "name": "Csóka utca (Karinthy Színház)",
            "lat": 47.470698,
            "lng": 19.028585
        },
        {
            "name": "Szent Gellért-templom",
            "lat": 47.468566,
            "lng": 19.023744
        },
        {
            "name": "Kelenföld vasútállomás M",
            "lat": 47.465755,
            "lng": 19.021871
        },
        {
            "name": "Szent Gellért-templom",
            "lat": 47.46862,
            "lng": 19.024102
        },
        {
            "name": "Csóka utca (Karinthy Színház)",
            "lat": 47.470851,
            "lng": 19.029195
        },
        {
            "name": "Karolina út",
            "lat": 47.472838,
            "lng": 19.033676
        },
        {
            "name": "Kosztolányi Dezső tér",
            "lat": 47.475179,
            "lng": 19.040191
        },
        {
            "name": "Móricz Zsigmond körtér M",
            "lat": 47.477491,
            "lng": 19.046864
        },
        {
            "name": "Gárdonyi tér",
            "lat": 47.480522,
            "lng": 19.051932
        },
        {
            "name": "Szent Gellért tér - Műegyetem M",
            "lat": 47.483616,
            "lng": 19.053537
        },
        {
            "name": "Fővám tér M",
            "lat": 47.487186,
            "lng": 19.05781
        },
        {
            "name": "Kálvin tér M",
            "lat": 47.489461,
            "lng": 19.061486
        },
        {
            "name": "Astoria M",
            "lat": 47.494145,
            "lng": 19.060146
        }
    ],
    "segment": "Deák Ferenc tér to Kelenföld vasútállomás",
    "paths": [
        [
            [
                47.497462,
                19.05521
            ],
            [
                47.495768,
                19.058764
            ],
            [
                47.494543,
                19.059808
            ],
            [
                47.491529,
                19.061444
            ],
            [
                47.490411,
                19.061709
            ],
            [
                47.489852,
                19.061653
            ],
            [
                47.488923,
                19.060938
            ],
            [
                47.484724,
                19.052969
            ],
            [
                47.484507,
                19.052966
            ],
            [
                47.483862,
                19.053585
            ],
            [
                47.483337,
                19.053086
            ],
            [
                47.481063,
                19.052168
            ],
            [
                47.479548,
                19.051032
            ],
            [
                47.478742,
                19.049768
            ],
            [
                47.477989,
                19.047984
            ],
            [
                47.473122,
                19.034219
            ],
            [
                47.468076,
                19.022617
            ],
            [
                47.467711,
                19.022253
            ],
            [
                47.465755,
                19.021871
            ]
        ],
        [
            [
                47.465755,
                19.021871
            ],
            [
                47.467712,
                19.022306
            ],
            [
                47.468049,
                19.022637
            ],
            [
                47.473138,
                19.034342
            ],
            [
                47.477141,
                19.045529
            ],
            [
                47.477491,
                19.046864
            ],
            [
                47.478728,
                19.049814
            ],
            [
                47.479433,
                19.050961
            ],
            [
                47.480522,
                19.051932
            ],
            [
                47.483136,
                19.053045
            ],
            [
                47.483875,
                19.053693
            ],
            [
                47.484554,
                19.053021
            ],
            [
                47.484738,
                19.053046
            ],
            [
                47.489031,
                19.061155
            ],
            [
                47.489731,
                19.061697
            ],
            [
                47.490259,
                19.061792
            ],
            [
                47.491536,
                19.061498
            ],
            [
                47.494145,
                19.060146
            ],
            [
                47.495897,
                19.058752
            ],
            [
                47.497413,
                19.055158
            ]
        ]
    ]
}