{
    "line_name": "51",
    "color": "#FFD800",
    "z_index": 3,
    "stops": [
        {
            "name": "Mester utca / Ferenc körút",
            "lat": 47.481608,
            "lng": 19.068702
        },
        {
            "name": "Bokréta utca",
            "lat": 47.479116,
            "lng": 19.072655
        },
        {
            "name": "Ferencvárosi rendelőintézet",
            "lat": 47.477155,
            "lng": 19.075785
        },
        {
            "name": "Haller utca / Mester utca",
            "lat": 47.475649,
            "lng": 19.077774
        },
        {
            "name": "Vágóhíd utca",
            "lat": 47.473403,
            "lng": 19.079922
        },
        {
            "name": "Mester utca / Könyves Kálmán körút",
            "lat": 47.469814,
            "lng": 19.082997
        },
        {
            "name": "Mester utca / Könyves Kálmán körút",
            "lat": 47.470226,
            "lng": 19.08276
        },
        {
            "name": "Vágóhíd utca",
            "lat": 47.473151,
            "lng": 19.080293
        },
        {
            "name": "Haller utca / Mester utca",
            "lat": 47.475928,
            "lng": 19.077615
        },
        {
            "name": "Bokréta utca",
            "lat": 47.479527,
            "lng": 19.072243
        }
    ],
    "segment": "Mester utca / Ferenc körút to Mester utca / Könyves Kálmán körút",
    "paths": [
        [
            [
                47.481637,
                19.068743
            ],
            [
                47.476317,
                19.077135
            ],
            [
                47.47115,
                19.082211
            ],
            [
                47.470655,
                19.082626
            ],
            [
                47.469814,
                19.082997
            ]
        ],
        [
            [
                47.470226,
                19.08276
            ],
            [
                47.470656,
                19.082686
            ],
            [
                47.471176,
                19.08224
            ],
            [
                47.476341,
                19.077172
            ],
            [
                47.479527,
                19.072243
            ],
            [
                47.481608,
                19.068702
            ]
        ],
        [
            [
                47.481608,
                19.068702
            ],
            [
                47.476317,
                19.077135
            ],
            [
                47.47115,
                19.082211
            ],
            [
                47.470655,
                19.082626
            ],
            [
                47.469814,
                19.082997
            ]
        ]
    ]
}