{
    "line_name": "196",
    "color": "#009EE3",
    "z_index": 1,
    "stops": [
        {
            "name": "Fő tér",
            "lat": 47.542447,
            "lng": 19.140816
        },
        {
            "name": "Vásárcsarnok",
            "lat": 47.545487,
            "lng": 19.138293
        },
        {
            "name": "Sárfű utca",
            "lat": 47.547307,
            "lng": 19.135187
        },
        {
            "name": "Bánkút utca",
            "lat": 47.549432,
            "lng": 19.131591
        },
        {
            "name": "Rákospalotai köztemető",
            "lat": 47.551832,
            "lng": 19.133773
        },
        {
            "name": "Bezerédj Pál utca",
            "lat": 47.557333,
            "lng": 19.125651
        },
        {
            "name": "Illyés Gyula utca",
            "lat": 47.559188,
            "lng": 19.122464
        },
        {
            "name": "Beller Imre utca",
            "lat": 47.561159,
            "lng": 19.118853
        },
        {
            "name": "Hubay Jenő tér",
            "lat": 47.562673,
            "lng": 19.114669
        },
        {
            "name": "Víztorony",
            "lat": 47.562273,
            "lng": 19.10667
        },
        {
            "name": "Árpád Kórház",
            "lat": 47.561402,
            "lng": 19.103785
        },
        {
            "name": "Árpád üzletház",
            "lat": 47.560145,
            "lng": 19.09803
        },
        {
            "name": "Újpest-központ M",
            "lat": 47.560616,
            "lng": 19.088238
        },
        {
            "name": "Újpest-városkapu M",
            "lat": 47.56069,
            "lng": 19.083016
        },
        {
            "name": "Újpest, Árpád út hajóállomás",
            "lat": 47.562097,
            "lng": 19.078486
        },
        {
            "name": "Újpest, Árpád út hajóállomás",
            "lat": 47.562796,
            "lng": 19.078314
        },
        {
            "name": "Újpest-városkapu M",
            "lat": 47.560492,
            "lng": 19.083468
        },
        {
            "name": "Újpest-központ M",
            "lat": 47.560184,
            "lng": 19.090683
        },
        {
            "name": "Árpád üzletház",
            "lat": 47.560378,
            "lng": 19.099824
        },
        {
            "name": "Árpád Kórház",
            "lat": 47.561033,
            "lng": 19.102961
        },
        {
            "name": "Víztorony",
            "lat": 47.562093,
            "lng": 19.106869
        },
        {
            "name": "Beller Imre utca",
            "lat": 47.561556,
            "lng": 19.117498
        },
        {
            "name": "Illyés Gyula utca",
            "lat": 47.55917,
            "lng": 19.122185
        },
        {
            "name": "Bezerédj Pál utca",
            "lat": 47.556712,
            "lng": 19.126394
        },
        {
            "name": "Rákospalotai köztemető",
            "lat": 47.55194,
            "lng": 19.133667
        },
        {
            "name": "Páskomliget utca",
            "lat": 47.548595,
            "lng": 19.132453
        },
        {
            "name": "Sárfű utca",
            "lat": 47.546533,
            "lng": 19.135943
        },
        {
            "name": "Vásárcsarnok",
            "lat": 47.5452,
            "lng": 19.138212
        },
        {
            "name": "Fő tér",
            "lat": 47.541618,
            "lng": 19.141651
        }
    ],
    "segment": "Fő tér to Újpest, Árpád út hajóállomás",
    "paths": [
        [
            [
                47.542447,
                19.140816
            ],
            [
                47.542981,
                19.140274
            ],
            [
                47.543835,
                19.140224
            ],
            [
                47.544584,
                19.139743
            ],
            [
                47.549693,
                19.131248
            ],
            [
                47.549904,
                19.13122
            ],
            [
                47.550203,
                19.131457
            ],
            [
                47.551896,
                19.133661
            ],
            [
                47.551832,
                19.133773
            ],
            [
                47.551896,
                19.133661
            ],
            [
                47.552263,
                19.134165
            ],
            [
                47.560144,
                19.12093
            ],
            [
                47.562685,
                19.115806
            ],
            [
                47.562447,
                19.107927
            ],
            [
                47.562273,
                19.10667
            ],
            [
                47.561278,
                19.103619
            ],
            [
                47.560894,
                19.101131
            ],
            [
                47.560026,
                19.097773
            ],
            [
                47.559814,
                19.094997
            ],
            [
                47.560616,
                19.088238
            ],
            [
                47.560669,
                19.082759
            ],
            [
                47.561314,
                19.078744
            ],
            [
                47.561564,
                19.07837
            ],
            [
                47.562097,
                19.078486
            ]
        ],
        [
            [
                47.542447,
                19.140816
            ],
            [
                47.542981,
                19.140274
            ],
            [
                47.543835,
                19.140224
            ],
            [
                47.544584,
                19.139743
            ],
            [
                47.549693,
                19.131248
            ],
            [
                47.549904,
                19.13122
            ],
            [
                47.550203,
                19.131457
            ],
            [
                47.551896,
                19.133661
            ],
            [
                47.551832,
                19.133773
            ],
            [
                47.551896,
                19.133661
            ],
            [
                47.552263,
                19.134165
            ],
            [
                47.560144,
                19.12093
            ],
            [
                47.562685,
                19.115806
            ],
            [
                47.562447,
                19.107927
            ],
            [
                47.562273,
                19.10667
            ],
            [
                47.561278,
                19.103619
            ],
            [
                47.560894,
                19.101131
            ],
            [
                47.560026,
                19.097773
            ],
            [
                47.559814,
                19.094997
            ],
            [
                47.560616,
                19.088238
            ],
            [
                47.560669,
                19.082759
            ],
            [
                47.561314,
                19.078744
            ],
            [
                47.561564,
                19.07837
            ],
            [
                47.562097,
                19.078486
            ]
        ],
        [
            [
                47.562796,
                19.078314
            ],
            [
                47.562782,
                19.078418
            ],
            [
                47.561514,
                19.078125
            ],
            [
                47.561381,
                19.078227
            ],
            [
                47.560609,
                19.083485
            ],
            [
                47.560492,
                19.083468
            ],
            [
                47.560609,
                19.083485
            ],
            [
                47.560637,
                19.087243
            ],
            [
                47.559812,
                19.09473
            ],
            [
                47.559983,
                19.097515
            ],
            [
                47.560522,
                19.099735
            ],
            [
                47.560378,
                19.099824
            ],
            [
                47.560521,
                19.099735
            ],
            [
                47.560818,
                19.100788
            ],
            [
                47.561153,
                19.102927
            ],
            [
                47.561033,
                19.102961
            ],
            [
                47.561153,
                19.102927
            ],
            [
                47.562447,
                19.107927
            ],
            [
                47.562583,
                19.115781
            ],
            [
                47.561627,
                19.117579
            ],
            [
                47.561556,
                19.117498
            ],
            [
                47.559855,
                19.121278
            ],
            [
                47.559238,
                19.122275
            ],
            [
                47.55917,
                19.122185
            ],
            [
                47.559238,
                19.122275
            ],
            [
                47.558513,
                19.123536
            ],
            [
                47.556773,
                19.126495
            ],
            [
                47.556712,
                19.126394
            ],
            [
                47.556773,
                19.126495
            ],
            [
                47.552263,
                19.134165
            ],
            [
                47.549695,
                19.130775
            ],
            [
                47.54947,
                19.130817
            ],
            [
                47.54908,
                19.131822
            ],
            [
                47.544629,
                19.1393
            ],
            [
                47.544102,
                19.139733
            ],
            [
                47.543271,
                19.139761
            ],
            [
                47.542751,
                19.140001
            ],
            [
                47.541618,
                19.141651
            ]
        ],
        [
            [
                47.562796,
                19.078314
            ],
            [
                47.562782,
                19.078418
            ],
            [
                47.561514,
                19.078125
            ],
            [
                47.561381,
                19.078227
            ],
            [
                47.560609,
                19.083485
            ],
            [
                47.560492,
                19.083468
            ],
            [
                47.560609,
                19.083485
            ],
            [
                47.560637,
                19.087243
            ],
            [
                47.559812,
                19.09473
            ],
            [
                47.559983,
                19.097515
            ],
            [
                47.560522,
                19.099735
            ],
            [
                47.560378,
                19.099824
            ],
            [
                47.560521,
                19.099735
            ],
            [
                47.560818,
                19.100788
            ],
            [
                47.561153,
                19.102927
            ],
            [
                47.561033,
                19.102961
            ],
            [
                47.561153,
                19.102927
            ],
            [
                47.562447,
                19.107927
            ],
            [
                47.562583,
                19.115781
            ],
            [
                47.561627,
                19.117579
            ],
            [
                47.561556,
                19.117498
            ],
            [
                47.559855,
                19.121278
            ],
            [
                47.559238,
                19.122275
            ],
            [
                47.55917,
                19.122185
            ],
            [
                47.559238,
                19.122275
            ],
            [
                47.558513,
                19.123536
            ],
            [
                47.556773,
                19.126495
            ],
            [
                47.556712,
                19.126394
            ],
            [
                47.556773,
                19.126495
            ],
            [
                47.552263,
                19.134165
            ],
            [
                47.549695,
                19.130775
            ],
            [
                47.54947,
                19.130817
            ],
            [
                47.54908,
                19.131822
            ],
            [
                47.544629,
                19.1393
            ],
            [
                47.544102,
                19.139733
            ],
            [
                47.543271,
                19.139761
            ],
            [
                47.542751,
                19.140001
            ],
            [
                47.541618,
                19.141651
            ]
        ]
    ]
}