{
    "line_name": "53",
    "color": "#009EE3",
    "z_index": 1,
    "stops": [
        {
            "name": "Mindszenty József bíboros tér",
            "lat": 47.487243,
            "lng": 18.989793
        },
        {
            "name": "Hó utca",
            "lat": 47.486417,
            "lng": 18.992156
        },
        {
            "name": "Hajnalka utca",
            "lat": 47.485024,
            "lng": 18.994161
        },
        {
            "name": "Orvosi rendelő",
            "lat": 47.483316,
            "lng": 18.99622
        },
        {
            "name": "Márton Áron tér",
            "lat": 47.481887,
            "lng": 18.998171
        },
        {
            "name": "Zajzon utca",
            "lat": 47.479379,
            "lng": 19.001132
        },
        {
            "name": "Tömös utca",
            "lat": 47.477919,
            "lng": 19.002349
        },
        {
            "name": "Nagyszalonta köz",
            "lat": 47.475274,
            "lng": 19.004363
        },
        {
            "name": "Bereck utca",
            "lat": 47.473104,
            "lng": 19.008248
        },
        {
            "name": "Előpatak utca",
            "lat": 47.471081,
            "lng": 19.010942
        },
        {
            "name": "Sümegvár utca",
            "lat": 47.46913,
            "lng": 19.013398
        },
        {
            "name": "Sasadi út",
            "lat": 47.466954,
            "lng": 19.015972
        },
        {
            "name": "Kelenföld vasútállomás M",
            "lat": 47.464436,
            "lng": 19.018308
        },
        {
            "name": "Dayka Gábor utca",
            "lat": 47.470427,
            "lng": 19.020056
        },
        {
            "name": "Ajnácskő utca",
            "lat": 47.47434,
            "lng": 19.025042
        },
        {
            "name": "Hollókő utca",
            "lat": 47.47534,
            "lng": 19.02983
        },
        {
            "name": "Vincellér utca",
            "lat": 47.476285,
            "lng": 19.035932
        },
        {
            "name": "Kosztolányi Dezső tér",
            "lat": 47.474864,
            "lng": 19.042062
        },
        {
            "name": "Újbuda-központ M",
            "lat": 47.473785,
            "lng": 19.047395
        },
        {
            "name": "Újbuda-központ M",
            "lat": 47.474064,
            "lng": 19.048204
        },
        {
            "name": "Újbuda-központ M",
            "lat": 47.474163,
            "lng": 19.04705
        },
        {
            "name": "Kosztolányi Dezső tér",
            "lat": 47.475688,
            "lng": 19.039949
        },
        {
            "name": "Vincellér utca",
            "lat": 47.476663,
            "lng": 19.03572
        },
        {
            "name": "Hollókő utca",
            "lat": 47.475655,
            "lng": 19.030401
        },
        {
            "name": "Ajnácskő utca",
            "lat": 47.474475,
            "lng": 19.024776
        },
        {
            "name": "Dayka Gábor utca",
            "lat": 47.470616,
            "lng": 19.019684
        },
        {
            "name": "Sasadi út",
            "lat": 47.467215,
            "lng": 19.016596
        },
        {
            "name": "Sümegvár utca",
            "lat": 47.469732,
            "lng": 19.012867
        },
        {
            "name": "Előpatak utca",
            "lat": 47.471521,
            "lng": 19.010544
        },
        {
            "name": "Bereck utca",
            "lat": 47.47367,
            "lng": 19.007651
        },
        {
            "name": "Nagyszalonta köz",
            "lat": 47.475526,
            "lng": 19.003867
        },
        {
            "name": "Tömös utca",
            "lat": 47.477581,
            "lng": 19.002766
        },
        {
            "name": "Zajzon utca",
            "lat": 47.479837,
            "lng": 19.000721
        },
        {
            "name": "Márton Áron tér",
            "lat": 47.481524,
            "lng": 18.998882
        },
        {
            "name": "Orvosi rendelő",
            "lat": 47.483703,
            "lng": 18.995861
        },
        {
            "name": "Hajnalka utca",
            "lat": 47.485258,
            "lng": 18.994028
        },
        {
            "name": "Hó utca",
            "lat": 47.486489,
            "lng": 18.992236
        }
    ],
    "segment": "Újbuda-központ to Mindszenty József bíboros tér",
    "paths": [
        [
            [
                47.487243,
                18.989793
            ],
            [
                47.487364,
                18.989788
            ],
            [
                47.487374,
                18.990086
            ],
            [
                47.486286,
                18.992603
            ],
            [
                47.483316,
                18.99622
            ],
            [
                47.481632,
                18.998717
            ],
            [
                47.480502,
                18.999728
            ],
            [
                47.47941,
                19.001196
            ],
            [
                47.477623,
                19.002671
            ],
            [
                47.476671,
                19.003276
            ],
            [
                47.475919,
                19.003258
            ],
            [
                47.475661,
                19.00339
            ],
            [
                47.474938,
                19.005499
            ],
            [
                47.474197,
                19.006908
            ],
            [
                47.470002,
                19.012495
            ],
            [
                47.466833,
                19.016236
            ],
            [
                47.466295,
                19.015422
            ],
            [
                47.465347,
                19.014488
            ],
            [
                47.46512,
                19.014545
            ],
            [
                47.465118,
                19.01491
            ],
            [
                47.465721,
                19.015933
            ],
            [
                47.465623,
                19.016578
            ],
            [
                47.464666,
                19.0186
            ],
            [
                47.463951,
                19.018551
            ],
            [
                47.463969,
                19.018276
            ],
            [
                47.464111,
                19.018159
            ],
            [
                47.464436,
                19.018308
            ],
            [
                47.464806,
                19.017607
            ],
            [
                47.465127,
                19.017755
            ],
            [
                47.465623,
                19.016578
            ],
            [
                47.466066,
                19.01634
            ],
            [
                47.466801,
                19.017074
            ],
            [
                47.468584,
                19.0183
            ],
            [
                47.470481,
                19.019918
            ],
            [
                47.470427,
                19.020056
            ],
            [
                47.470481,
                19.019918
            ],
            [
                47.47063,
                19.020044
            ],
            [
                47.472009,
                19.021454
            ],
            [
                47.474342,
                19.023033
            ],
            [
                47.474231,
                19.024109
            ],
            [
                47.47434,
                19.025042
            ],
            [
                47.476552,
                19.035069
            ],
            [
                47.474864,
                19.042062
            ],
            [
                47.473785,
                19.047395
            ]
        ],
        [
            [
                47.474064,
                19.048204
            ],
            [
                47.474204,
                19.046206
            ],
            [
                47.476715,
                19.035118
            ],
            [
                47.474334,
                19.024172
            ],
            [
                47.474471,
                19.023001
            ],
            [
                47.47219,
                19.021396
            ],
            [
                47.470616,
                19.019684
            ],
            [
                47.468327,
                19.017886
            ],
            [
                47.466833,
                19.016236
            ],
            [
                47.469732,
                19.012867
            ],
            [
                47.474197,
                19.006908
            ],
            [
                47.474938,
                19.005499
            ],
            [
                47.475661,
                19.00339
            ],
            [
                47.475919,
                19.003258
            ],
            [
                47.476671,
                19.003276
            ],
            [
                47.477581,
                19.002766
            ],
            [
                47.47941,
                19.001196
            ],
            [
                47.480502,
                18.999728
            ],
            [
                47.481524,
                18.998882
            ],
            [
                47.483909,
                18.995519
            ],
            [
                47.485258,
                18.994028
            ],
            [
                47.486286,
                18.992603
            ],
            [
                47.48758,
                18.989757
            ],
            [
                47.48745,
                18.989438
            ],
            [
                47.487243,
                18.989793
            ]
        ]
    ]
}