{
    "line_name": "19",
    "color": "#FFD800",
    "z_index": 3,
    "stops": [
        {
            "name": "Bécsi út / Vörösvári út",
            "lat": 47.548489,
            "lng": 19.028994
        },
        {
            "name": "Váradi utca",
            "lat": 47.543524,
            "lng": 19.029926
        },
        {
            "name": "Szent Margit Kórház",
            "lat": 47.540313,
            "lng": 19.03091
        },
        {
            "name": "Selmeci utca",
            "lat": 47.536042,
            "lng": 19.033342
        },
        {
            "name": "Katinyi mártírok parkja",
            "lat": 47.532318,
            "lng": 19.036703
        },
        {
            "name": "Kolosy tér",
            "lat": 47.527687,
            "lng": 19.037474
        },
        {
            "name": "Zsigmond tér",
            "lat": 47.523954,
            "lng": 19.036824
        },
        {
            "name": "Komjádi Béla utca",
            "lat": 47.520338,
            "lng": 19.036612
        },
        {
            "name": "Szent Lukács Gyógyfürdő",
            "lat": 47.51684,
            "lng": 19.036573
        },
        {
            "name": "Margit híd, budai hídfő H",
            "lat": 47.515041,
            "lng": 19.038937
        },
        {
            "name": "Bem József tér",
            "lat": 47.511776,
            "lng": 19.039296
        },
        {
            "name": "Batthyány tér M+H",
            "lat": 47.505696,
            "lng": 19.039323
        },
        {
            "name": "Halász utca",
            "lat": 47.50226,
            "lng": 19.039815
        },
        {
            "name": "Clark Ádám tér",
            "lat": 47.497359,
            "lng": 19.041594
        },
        {
            "name": "Várkert Bazár",
            "lat": 47.493186,
            "lng": 19.044315
        },
        {
            "name": "Rudas Gyógyfürdő",
            "lat": 47.489824,
            "lng": 19.047383
        },
        {
            "name": "Szent Gellért tér - Műegyetem M",
            "lat": 47.483337,
            "lng": 19.053086
        },
        {
            "name": "Gárdonyi tér",
            "lat": 47.479991,
            "lng": 19.051428
        },
        {
            "name": "Móricz Zsigmond körtér M",
            "lat": 47.477374,
            "lng": 19.046161
        },
        {
            "name": "Kosztolányi Dezső tér",
            "lat": 47.47499,
            "lng": 19.039382
        },
        {
            "name": "Karolina út",
            "lat": 47.472696,
            "lng": 19.033201
        },
        {
            "name": "Csóka utca (Karinthy Színház)",
            "lat": 47.470698,
            "lng": 19.028585
        },
        {
            "name": "Szent Gellért-templom",
            "lat": 47.468566,
            "lng": 19.023744
        },
        {
            "name": "Kelenföld vasútállomás M",
            "lat": 47.465755,
            "lng": 19.021871
        },
        {
            "name": "Szent Gellért-templom",
            "lat": 47.46862,
            "lng": 19.024102
        },
        {
            "name": "Csóka utca (Karinthy Színház)",
            "lat": 47.470851,
            "lng": 19.029195
        },
        {
            "name": "Karolina út",
            "lat": 47.472838,
            "lng": 19.033676
        },
        {
            "name": "Kosztolányi Dezső tér",
            "lat": 47.475179,
            "lng": 19.040191
        },
        {
            "name": "Móricz Zsigmond körtér M",
            "lat": 47.477491,
            "lng": 19.046864
        },
        {
            "name": "Gárdonyi tér",
            "lat": 47.480522,
            "lng": 19.051932
        },
        {
            "name": "Szent Gellért tér - Műegyetem M",
            "lat": 47.483616,
            "lng": 19.053537
        },
        {
            "name": "Rudas Gyógyfürdő",
            "lat": 47.49011,
            "lng": 19.047195
        },
        {
            "name": "Várkert Bazár",
            "lat": 47.493536,
            "lng": 19.044169
        },
        {
            "name": "Clark Ádám tér",
            "lat": 47.497665,
            "lng": 19.041541
        },
        {
            "name": "Halász utca",
            "lat": 47.501784,
            "lng": 19.040028
        },
        {
            "name": "Batthyány tér M+H",
            "lat": 47.506002,
            "lng": 19.039456
        },
        {
            "name": "Bem József tér",
            "lat": 47.512082,
            "lng": 19.039455
        },
        {
            "name": "Margit híd, budai hídfő H",
            "lat": 47.515149,
            "lng": 19.037569
        },
        {
            "name": "Szent Lukács Gyógyfürdő",
            "lat": 47.517118,
            "lng": 19.036533
        },
        {
            "name": "Komjádi Béla utca",
            "lat": 47.520635,
            "lng": 19.036798
        },
        {
            "name": "Zsigmond tér",
            "lat": 47.524251,
            "lng": 19.03693
        },
        {
            "name": "Kolosy tér",
            "lat": 47.527983,
            "lng": 19.03766
        },
        {
            "name": "Katinyi mártírok parkja",
            "lat": 47.532615,
            "lng": 19.036517
        },
        {
            "name": "Selmeci utca",
            "lat": 47.535754,
            "lng": 19.0337
        },
        {
            "name": "Szent Margit Kórház",
            "lat": 47.540637,
            "lng": 19.030923
        },
        {
            "name": "Váradi utca",
            "lat": 47.54383,
            "lng": 19.029979
        },
        {
            "name": "Bécsi út / Vörösvári út",
            "lat": 47.546762,
            "lng": 19.029194
        }
    ],
    "segment": "Bécsi út / Vörösvári út to Kelenföld vasútállomás",
    "paths": [
        [
            [
                47.548488,
                19.029028
            ],
            [
                47.547071,
                19.029043
            ],
            [
                47.543524,
                19.029926
            ],
            [
                47.540313,
                19.03091
            ],
            [
                47.53843,
                19.031792
            ],
            [
                47.536042,
                19.033342
            ],
            [
                47.533569,
                19.035354
            ],
            [
                47.532057,
                19.037026
            ],
            [
                47.530246,
                19.037818
            ],
            [
                47.529464,
                19.037925
            ],
            [
                47.524526,
                19.036861
            ],
            [
                47.52134,
                19.036869
            ],
            [
                47.518798,
                19.036249
            ],
            [
                47.517766,
                19.036201
            ],
            [
                47.516453,
                19.036836
            ],
            [
                47.515231,
                19.037156
            ],
            [
                47.515027,
                19.039279
            ],
            [
                47.514851,
                19.039471
            ],
            [
                47.514092,
                19.039693
            ],
            [
                47.511776,
                19.039296
            ],
            [
                47.505696,
                19.039323
            ],
            [
                47.50226,
                19.039815
            ],
            [
                47.49891,
                19.040899
            ],
            [
                47.498374,
                19.040439
            ],
            [
                47.497986,
                19.041318
            ],
            [
                47.495039,
                19.042948
            ],
            [
                47.490944,
                19.046165
            ],
            [
                47.485272,
                19.052378
            ],
            [
                47.483862,
                19.053585
            ],
            [
                47.483337,
                19.053086
            ],
            [
                47.481202,
                19.052238
            ],
            [
                47.48,
                19.051467
            ],
            [
                47.479412,
                19.050874
            ],
            [
                47.478687,
                19.049672
            ],
            [
                47.473122,
                19.034219
            ],
            [
                47.468076,
                19.022617
            ],
            [
                47.467711,
                19.022253
            ],
            [
                47.465755,
                19.021871
            ]
        ],
        [
            [
                47.465753,
                19.021903
            ],
            [
                47.46767,
                19.022292
            ],
            [
                47.468049,
                19.022637
            ],
            [
                47.473138,
                19.034342
            ],
            [
                47.477141,
                19.045529
            ],
            [
                47.477491,
                19.046864
            ],
            [
                47.478728,
                19.049814
            ],
            [
                47.479433,
                19.050961
            ],
            [
                47.480522,
                19.051932
            ],
            [
                47.483136,
                19.053045
            ],
            [
                47.483874,
                19.053641
            ],
            [
                47.485287,
                19.05242
            ],
            [
                47.490956,
                19.046205
            ],
            [
                47.495044,
                19.04298
            ],
            [
                47.498035,
                19.041346
            ],
            [
                47.498359,
                19.04053
            ],
            [
                47.498546,
                19.040542
            ],
            [
                47.498882,
                19.040951
            ],
            [
                47.502565,
                19.039831
            ],
            [
                47.506101,
                19.039394
            ],
            [
                47.51167,
                19.039366
            ],
            [
                47.514092,
                19.039694
            ],
            [
                47.514893,
                19.039469
            ],
            [
                47.515065,
                19.039261
            ],
            [
                47.515223,
                19.037222
            ],
            [
                47.516472,
                19.036869
            ],
            [
                47.517726,
                19.036251
            ],
            [
                47.518792,
                19.036294
            ],
            [
                47.521329,
                19.036916
            ],
            [
                47.524624,
                19.036928
            ],
            [
                47.529466,
                19.037963
            ],
            [
                47.5302,
                19.037881
            ],
            [
                47.532179,
                19.036989
            ],
            [
                47.533521,
                19.035427
            ],
            [
                47.535812,
                19.033603
            ],
            [
                47.538441,
                19.03183
            ],
            [
                47.541419,
                19.030571
            ],
            [
                47.546762,
                19.029194
            ]
        ]
    ]
}