{
    "line_name": "14",
    "color": "#FFD800",
    "z_index": 3,
    "stops": [
        {
            "name": "Lehel tér M",
            "lat": 47.517354,
            "lng": 19.060723
        },
        {
            "name": "Dévai utca",
            "lat": 47.51871,
            "lng": 19.065238
        },
        {
            "name": "Lehel utca / Dózsa György út",
            "lat": 47.520751,
            "lng": 19.069009
        },
        {
            "name": "Hun utca",
            "lat": 47.523961,
            "lng": 19.074946
        },
        {
            "name": "Lehel utca / Róbert Károly körút",
            "lat": 47.526244,
            "lng": 19.078506
        },
        {
            "name": "Béke tér",
            "lat": 47.529745,
            "lng": 19.080488
        },
        {
            "name": "Frangepán utca",
            "lat": 47.534365,
            "lng": 19.082521
        },
        {
            "name": "Fiastyúk utca",
            "lat": 47.540537,
            "lng": 19.085874
        },
        {
            "name": "Rokolya utca",
            "lat": 47.542539,
            "lng": 19.087016
        },
        {
            "name": "Gyöngyösi utca",
            "lat": 47.546217,
            "lng": 19.089038
        },
        {
            "name": "Angyalföld vasútállomás",
            "lat": 47.550363,
            "lng": 19.091315
        },
        {
            "name": "Angyalföld kocsiszín",
            "lat": 47.552945,
            "lng": 19.091847
        },
        {
            "name": "Tél utca / Pozsonyi utca",
            "lat": 47.556247,
            "lng": 19.088847
        },
        {
            "name": "Újpest-központ M",
            "lat": 47.560187,
            "lng": 19.08974
        },
        {
            "name": "Újpest-központ M",
            "lat": 47.560672,
            "lng": 19.089833
        },
        {
            "name": "Tél utca / Pozsonyi utca",
            "lat": 47.554997,
            "lng": 19.089643
        },
        {
            "name": "Angyalföld kocsiszín",
            "lat": 47.553044,
            "lng": 19.091674
        },
        {
            "name": "Angyalföld vasútállomás",
            "lat": 47.549906,
            "lng": 19.090953
        },
        {
            "name": "Gyöngyösi utca",
            "lat": 47.545902,
            "lng": 19.088745
        },
        {
            "name": "Rokolya utca",
            "lat": 47.542701,
            "lng": 19.086976
        },
        {
            "name": "Fiastyúk utca",
            "lat": 47.540159,
            "lng": 19.085595
        },
        {
            "name": "Frangepán utca",
            "lat": 47.533945,
            "lng": 19.082177
        },
        {
            "name": "Béke tér",
            "lat": 47.529376,
            "lng": 19.080195
        },
        {
            "name": "Lehel utca / Róbert Károly körút",
            "lat": 47.525833,
            "lng": 19.078188
        },
        {
            "name": "Hun utca",
            "lat": 47.524185,
            "lng": 19.075211
        },
        {
            "name": "Lehel utca / Dózsa György út",
            "lat": 47.521014,
            "lng": 19.069289
        },
        {
            "name": "Dévai utca",
            "lat": 47.518494,
            "lng": 19.064667
        }
    ],
    "segment": "Lehel tér to Újpest-központ",
    "paths": [
        [
            [
                47.517354,
                19.060723
            ],
            [
                47.517051,
                19.061648
            ],
            [
                47.517101,
                19.062029
            ],
            [
                47.51871,
                19.065238
            ],
            [
                47.525847,
                19.078288
            ],
            [
                47.529941,
                19.08059
            ],
            [
                47.531362,
                19.080827
            ],
            [
                47.550363,
                19.091315
            ],
            [
                47.552945,
                19.091847
            ],
            [
                47.553351,
                19.091748
            ],
            [
                47.554223,
                19.091036
            ],
            [
                47.555335,
                19.089385
            ],
            [
                47.556514,
                19.088744
            ],
            [
                47.557353,
                19.088767
            ],
            [
                47.560187,
                19.08974
            ]
        ],
        [
            [
                47.560672,
                19.089833
            ],
            [
                47.557474,
                19.088753
            ],
            [
                47.55665,
                19.088677
            ],
            [
                47.555958,
                19.088883
            ],
            [
                47.555393,
                19.089275
            ],
            [
                47.554997,
                19.089643
            ],
            [
                47.554166,
                19.091041
            ],
            [
                47.55337,
                19.091673
            ],
            [
                47.550806,
                19.091389
            ],
            [
                47.531469,
                19.080838
            ],
            [
                47.529851,
                19.08049
            ],
            [
                47.525881,
                19.078224
            ],
            [
                47.517184,
                19.062116
            ],
            [
                47.517121,
                19.061439
            ],
            [
                47.517354,
                19.060723
            ]
        ]
    ]
}