{
    "line_name": "56",
    "color": "#FFD800",
    "z_index": 3,
    "stops": [
        {
            "name": "Andor utca",
            "lat": 47.455715,
            "lng": 19.039836
        },
        {
            "name": "Kalotaszeg utca",
            "lat": 47.458827,
            "lng": 19.040976
        },
        {
            "name": "Etele út / Fehérvári út",
            "lat": 47.463398,
            "lng": 19.042572
        },
        {
            "name": "Hauszmann Alajos utca",
            "lat": 47.467039,
            "lng": 19.043919
        },
        {
            "name": "Csonka János tér",
            "lat": 47.470259,
            "lng": 19.045087
        },
        {
            "name": "Újbuda-központ M",
            "lat": 47.4748,
            "lng": 19.046664
        },
        {
            "name": "Móricz Zsigmond körtér M",
            "lat": 47.477248,
            "lng": 19.047328
        },
        {
            "name": "Gárdonyi tér",
            "lat": 47.480522,
            "lng": 19.051932
        },
        {
            "name": "Szent Gellért tér - Műegyetem M",
            "lat": 47.483616,
            "lng": 19.053537
        },
        {
            "name": "Rudas Gyógyfürdő",
            "lat": 47.49011,
            "lng": 19.047195
        },
        {
            "name": "Döbrentei tér",
            "lat": 47.491737,
            "lng": 19.043373
        },
        {
            "name": "Dózsa György tér",
            "lat": 47.493698,
            "lng": 19.038463
        },
        {
            "name": "Krisztina tér",
            "lat": 47.496621,
            "lng": 19.032847
        },
        {
            "name": "Mikó utca",
            "lat": 47.498365,
            "lng": 19.028997
        },
        {
            "name": "Déli pályaudvar M",
            "lat": 47.501071,
            "lng": 19.024671
        },
        {
            "name": "Széll Kálmán tér M",
            "lat": 47.506863,
            "lng": 19.024178
        },
        {
            "name": "Nyúl utca",
            "lat": 47.508723,
            "lng": 19.018044
        },
        {
            "name": "Városmajor",
            "lat": 47.509595,
            "lng": 19.013212
        },
        {
            "name": "Szent János Kórház",
            "lat": 47.509837,
            "lng": 19.009411
        },
        {
            "name": "Nagyajtai utca",
            "lat": 47.513548,
            "lng": 19.002854
        },
        {
            "name": "Budagyöngye",
            "lat": 47.516092,
            "lng": 18.999188
        },
        {
            "name": "Akadémia",
            "lat": 47.519292,
            "lng": 18.994126
        },
        {
            "name": "Kelemen László utca",
            "lat": 47.521952,
            "lng": 18.990326
        },
        {
            "name": "Kelemen László utca",
            "lat": 47.521602,
            "lng": 18.990632
        },
        {
            "name": "Akadémia",
            "lat": 47.519337,
            "lng": 18.9939
        },
        {
            "name": "Budagyöngye",
            "lat": 47.516146,
            "lng": 18.998975
        },
        {
            "name": "Nagyajtai utca",
            "lat": 47.513548,
            "lng": 19.002642
        },
        {
            "name": "Szent János Kórház",
            "lat": 47.509728,
            "lng": 19.009813
        },
        {
            "name": "Városmajor",
            "lat": 47.50955,
            "lng": 19.013012
        },
        {
            "name": "Nyúl utca",
            "lat": 47.508669,
            "lng": 19.017872
        },
        {
            "name": "Széll Kálmán tér M",
            "lat": 47.506611,
            "lng": 19.02439
        },
        {
            "name": "Déli pályaudvar M",
            "lat": 47.500801,
            "lng": 19.02499
        },
        {
            "name": "Mikó utca",
            "lat": 47.498374,
            "lng": 19.028747
        },
        {
            "name": "Krisztina tér",
            "lat": 47.496881,
            "lng": 19.032117
        },
        {
            "name": "Dózsa György tér",
            "lat": 47.49377,
            "lng": 19.038224
        },
        {
            "name": "Döbrentei tér",
            "lat": 47.491486,
            "lng": 19.043705
        },
        {
            "name": "Rudas Gyógyfürdő",
            "lat": 47.489824,
            "lng": 19.047383
        },
        {
            "name": "Szent Gellért tér - Műegyetem M",
            "lat": 47.483337,
            "lng": 19.053086
        },
        {
            "name": "Gárdonyi tér",
            "lat": 47.479991,
            "lng": 19.051428
        },
        {
            "name": "Móricz Zsigmond körtér M",
            "lat": 47.476836,
            "lng": 19.047188
        },
        {
            "name": "Újbuda-központ M",
            "lat": 47.474467,
            "lng": 19.046478
        },
        {
            "name": "Csonka János tér",
            "lat": 47.469783,
            "lng": 19.044821
        },
        {
            "name": "Hauszmann Alajos utca",
            "lat": 47.467345,
            "lng": 19.043933
        },
        {
            "name": "Etele út / Fehérvári út",
            "lat": 47.462639,
            "lng": 19.042274
        },
        {
            "name": "Kalotaszeg utca",
            "lat": 47.459178,
            "lng": 19.041003
        },
        {
            "name": "Andor utca",
            "lat": 47.456129,
            "lng": 19.039889
        }
    ],
    "segment": "Kelemen László utca to Andor utca",
    "paths": [
        [
            [
                47.455715,
                19.039836
            ],
            [
                47.475091,
                19.046811
            ],
            [
                47.47764,
                19.047369
            ],
            [
                47.478693,
                19.049752
            ],
            [
                47.479819,
                19.051359
            ],
            [
                47.481141,
                19.052257
            ],
            [
                47.483136,
                19.053045
            ],
            [
                47.483616,
                19.053537
            ],
            [
                47.484062,
                19.053575
            ],
            [
                47.487511,
                19.050012
            ],
            [
                47.488004,
                19.0493
            ],
            [
                47.488603,
                19.048833
            ],
            [
                47.491043,
                19.046014
            ],
            [
                47.491094,
                19.044551
            ],
            [
                47.491805,
                19.043205
            ],
            [
                47.492446,
                19.040983
            ],
            [
                47.493165,
                19.039171
            ],
            [
                47.494722,
                19.036646
            ],
            [
                47.495226,
                19.035397
            ],
            [
                47.496621,
                19.032847
            ],
            [
                47.497697,
                19.03014
            ],
            [
                47.498885,
                19.027959
            ],
            [
                47.501272,
                19.024352
            ],
            [
                47.501664,
                19.024169
            ],
            [
                47.503418,
                19.024111
            ],
            [
                47.504497,
                19.024318
            ],
            [
                47.50562,
                19.02428
            ],
            [
                47.506406,
                19.024713
            ],
            [
                47.506631,
                19.024575
            ],
            [
                47.507333,
                19.023296
            ],
            [
                47.507658,
                19.022058
            ],
            [
                47.508351,
                19.020867
            ],
            [
                47.509046,
                19.015934
            ],
            [
                47.509778,
                19.01207
            ],
            [
                47.509919,
                19.008455
            ],
            [
                47.511523,
                19.006334
            ],
            [
                47.513888,
                19.002319
            ],
            [
                47.516872,
                18.998096
            ],
            [
                47.517491,
                18.996772
            ],
            [
                47.521952,
                18.990326
            ]
        ],
        [
            [
                47.521602,
                18.990632
            ],
            [
                47.521667,
                18.990733
            ],
            [
                47.517467,
                18.99673
            ],
            [
                47.516849,
                18.998058
            ],
            [
                47.513601,
                19.002741
            ],
            [
                47.513548,
                19.002642
            ],
            [
                47.51251,
                19.004758
            ],
            [
                47.511503,
                19.006311
            ],
            [
                47.509901,
                19.008432
            ],
            [
                47.509728,
                19.009813
            ],
            [
                47.50972,
                19.012275
            ],
            [
                47.508669,
                19.017872
            ],
            [
                47.50833,
                19.020763
            ],
            [
                47.507669,
                19.02194
            ],
            [
                47.507309,
                19.023267
            ],
            [
                47.506606,
                19.024555
            ],
            [
                47.506383,
                19.024658
            ],
            [
                47.505552,
                19.024219
            ],
            [
                47.50451,
                19.024275
            ],
            [
                47.503302,
                19.024059
            ],
            [
                47.501578,
                19.024122
            ],
            [
                47.501258,
                19.024299
            ],
            [
                47.498374,
                19.028747
            ],
            [
                47.496803,
                19.032377
            ],
            [
                47.495267,
                19.035247
            ],
            [
                47.4947,
                19.036622
            ],
            [
                47.493144,
                19.039146
            ],
            [
                47.492419,
                19.040962
            ],
            [
                47.491782,
                19.043187
            ],
            [
                47.491073,
                19.044535
            ],
            [
                47.490998,
                19.046035
            ],
            [
                47.485378,
                19.052264
            ],
            [
                47.484596,
                19.052837
            ],
            [
                47.484045,
                19.053531
            ],
            [
                47.483813,
                19.05357
            ],
            [
                47.483337,
                19.053086
            ],
            [
                47.481063,
                19.052168
            ],
            [
                47.479771,
                19.05126
            ],
            [
                47.478687,
                19.049672
            ],
            [
                47.477664,
                19.04733
            ],
            [
                47.476335,
                19.047113
            ],
            [
                47.474467,
                19.046478
            ],
            [
                47.456129,
                19.039889
            ]
        ]
    ]
}